[
  {
    "id": "main-gate",
    "name": "Main Gate",
    "type": "Landmark",
    "lat": -14.291256,
    "lng": 28.5551636,
    "thumbnail": "https://i.postimg.cc/132Qfgqw/gate.jpg",
    "image": "https://i.postimg.cc/132Qfgqw/gate.jpg",
    "description": "The main entrance to Mulungushi University Great North Road Campus."
  },
  {
    "id": "great-lecture-hall",
    "name": "Great Lecture Hall",
    "type": "Lecture Venue",
    "lat": -14.4470,
    "lng": 28.4465,
    "thumbnail": "https://via.placeholder.com/300x200?text=Great+Lecture+Hall",
    "image": "https://via.placeholder.com/800x600?text=Great+Lecture+Hall",
    "description": "Large lecture hall for major university events and lectures."
  },
  {
    "id": "ict-block",
    "name": "ICT Block",
    "type": "Facility",
    "lat": -14.292465,
    "lng": 28.555363,
    "thumbnail": "https://i.postimg.cc/nhCxFKCj/ict.jpg",
    "image": "https://i.postimg.cc/nhCxFKCj/ict.jpg",
    "description": "Information and Communication Technology facilities."
  },
  {
    "id": "liberty-hostel",
    "name": "Liberty Hostel",
    "type": "Hostel",
    "lat": -14.4480,
    "lng": 28.4470,
    "thumbnail": "https://via.placeholder.com/300x200?text=Liberty+Hostel",
    "image": "https://via.placeholder.com/800x600?text=Liberty+Hostel",
    "description": "Student accommodation for female students."
  },
  {
    "id": "administration-block",
    "name": "Administration Block",
    "type": "Office",
    "lat": -14.295785,
    "lng": 28.559561,
    "thumbnail": "https://i.postimg.cc/K8RbG7RD/admin.jpg",
    "image": "https://i.postimg.cc/K8RbG7RD/admin.jpg",
    "description": "University administration offices."
  },
  {
    "id": "university-library",
    "name": "University Library",
    "type": "Facility",
    "lat": -14.296243,
    "lng": 28.560507,
    "thumbnail": "https://i.postimg.cc/6pyKWVyG/lib.jpg",
    "image": "https://i.postimg.cc/6pyKWVyG/lib.jpg",
    "description": "Central library with extensive resources."
  }
]